[{"GB":[{"name":"London Node.js User Group","urlname":"london-nodejs","lat":51.52,"lon":-0.07,"manager":"Adam Davis ","country":"GB","city":"London","state":"17"},{"name":"Node.js Meetup London","urlname":"Node-js-Meetup-London","lat":51.52,"lon":-0.1,"manager":"Andreas Lubbe","country":"GB","city":"London","state":"17"},{"name":"#LNM - London Node.JS Meetup","urlname":"LNM-London-Node-JS-Meetup","lat":51.52,"lon":-0.1,"manager":"Greta Strolyte","country":"GB","city":"London","state":"17"},{"name":"Node Workshops","urlname":"NodeWorkshops","lat":51.52,"lon":-0.1,"manager":"Daryn Holmes","country":"GB","city":"London","state":"17"},{"name":"JavaScript & NodeJS Cambridge","urlname":"JavaScript-Cambridge","lat":52.2,"lon":0.14,"manager":"Joe Parry","country":"GB","city":"Cambridge","state":"C3"},{"name":"London Node.js User Group","urlname":"london-nodejs","lat":51.52,"lon":-0.07,"manager":"Adam Davis ","country":"GB","city":"London","state":"17"},{"name":"#LNM - London Node.JS Meetup","urlname":"LNM-London-Node-JS-Meetup","lat":51.52,"lon":-0.1,"manager":"Greta Strolyte","country":"GB","city":"London","state":"17"}],"TH":[{"name":"Bangkok Node.js","urlname":"Bangkok-Node-js","lat":13.73,"lon":100.5,"manager":"Jayson Ho","country":"TH","city":"Bangkok","state":""},{"name":"Bangkok Node.js","urlname":"Bangkok-Node-js","lat":13.73,"lon":100.5,"manager":"Jayson Ho","country":"TH","city":"Bangkok","state":""}],"IE":[{"name":"Dublin Node.js Meetup","urlname":"Dublin-Node-js-Meetup","lat":53.33,"lon":-6.25,"manager":"Agata","country":"IE","city":"Dublin","state":""},{"name":"Dublin Node.js Meetup","urlname":"Dublin-Node-js-Meetup","lat":53.33,"lon":-6.25,"manager":"Agata","country":"IE","city":"Dublin","state":""},{"name":"Nodeschool Dublin Meetup","urlname":"Nodeschool-Dublin-Meetup","lat":53.33,"lon":-6.25,"manager":"Anton Whalley","country":"IE","city":"Dublin","state":""}],"BR":[{"name":"Node.js Porto Alegre Meetup","urlname":"Node-js-Porto-Alegre-Meetup","lat":-30.04,"lon":-51.22,"manager":"Andrey Moser Bidinotto","country":"BR","city":"Porto Alegre","state":""},{"name":"Nodeschool Campinas","urlname":"Nodeschool-Campinas","lat":-22.91,"lon":-47.08,"manager":"Filipe Oliveira","country":"BR","city":"Campinas","state":""},{"name":"Node.js Porto Alegre Meetup","urlname":"Node-js-Porto-Alegre-Meetup","lat":-30.04,"lon":-51.22,"manager":"Andrey Moser Bidinotto","country":"BR","city":"Porto Alegre","state":""},{"name":"Nodeschool Campinas","urlname":"Nodeschool-Campinas","lat":-22.91,"lon":-47.08,"manager":"Filipe Oliveira","country":"BR","city":"Campinas","state":""}],"FR":[{"name":"Node.js Paris","urlname":"Nodejs-Paris","lat":48.86,"lon":2.34,"manager":"Etienne Folio","country":"FR","city":"Paris","state":""},{"name":"NodeSchool Paris","urlname":"NodeSchool-Paris","lat":48.86,"lon":2.34,"manager":"Christophe Porteneuve","country":"FR","city":"Paris","state":""},{"name":"NodeSchool Paris","urlname":"NodeSchool-Paris","lat":48.86,"lon":2.34,"manager":"Christophe Porteneuve","country":"FR","city":"Paris","state":""}],"DE":[{"name":"node.js Mannheim","urlname":"node-js-Mannheim","lat":49.5,"lon":8.47,"manager":"Andreas Lappe","country":"DE","city":"Mannheim","state":""},{"name":"Node.js Meetup Berlin","urlname":"Node-js-Meetup-Berlin","lat":52.52,"lon":13.38,"manager":"Andreas Lubbe","country":"DE","city":"Berlin","state":""},{"name":"nodeJS Stuttgart","urlname":"nodemeetup","lat":48.79,"lon":9.19,"manager":"Andreas Offenhaeuser","country":"DE","city":"Stuttgart","state":""},{"name":"Nodeschool Munich","urlname":"Nodeschool-Munich","lat":48.14,"lon":11.58,"manager":"Michael Jaser","country":"DE","city":"München","state":""},{"name":"DarmstadtJS - JavaScript, AngularJS, React, Node.js  Meetup","urlname":"DarmstadtJS","lat":49.87,"lon":8.64,"manager":"Markus Karsch","country":"DE","city":"Darmstadt","state":""},{"name":"nodeJS Stuttgart","urlname":"nodemeetup","lat":48.79,"lon":9.19,"manager":"Andreas Offenhaeuser","country":"DE","city":"Stuttgart","state":""},{"name":"Node.js Meetup Berlin","urlname":"Node-js-Meetup-Berlin","lat":52.52,"lon":13.38,"manager":"Andreas Lubbe","country":"DE","city":"Berlin","state":""},{"name":"Nodeschool Munich","urlname":"Nodeschool-Munich","lat":48.14,"lon":11.58,"manager":"Michael Jaser","country":"DE","city":"München","state":""}],"NZ":[{"name":"Auckland Node.js Meetup","urlname":"AucklandNodeJs","lat":-36.85,"lon":174.76,"manager":"Jacob Duval","country":"NZ","city":"Auckland","state":""},{"name":"Auckland Node.js Meetup","urlname":"AucklandNodeJs","lat":-36.85,"lon":174.76,"manager":"Jacob Duval","country":"NZ","city":"Auckland","state":""}],"ES":[{"name":"Node.js Barcelona","urlname":"node-barcelona","lat":41.4,"lon":2.17,"manager":"BarcelonaJS","country":"ES","city":"Barcelona","state":""},{"name":"Node.js Madrid","urlname":"Node-js-Madrid","lat":40.42,"lon":-3.71,"manager":"Alex Fernández","country":"ES","city":"Madrid","state":""},{"name":"nodeJS Barcelona","urlname":"nodejsbcn","lat":41.4,"lon":2.17,"manager":"Jesús Seijas","country":"ES","city":"Barcelona","state":""},{"name":"Node.js Madrid","urlname":"Node-js-Madrid","lat":40.42,"lon":-3.71,"manager":"Alex Fernández","country":"ES","city":"Madrid","state":""}],"AT":[{"name":"Node.js Vienna","urlname":"nodejs-vienna","lat":48.22,"lon":16.37,"manager":"Christoph Walcher","country":"AT","city":"Vienna","state":""},{"name":"Node.js Vienna","urlname":"nodejs-vienna","lat":48.22,"lon":16.37,"manager":"Christoph Walcher","country":"AT","city":"Vienna","state":""}],"AU":[{"name":"Sydney Node.ninjas","urlname":"sydney-node-ninjas","lat":-33.87,"lon":151.21,"manager":"Romain","country":"AU","city":"Sydney","state":""},{"name":"Node Girls Sydney","urlname":"Node-Girls-Sydney","lat":-33.87,"lon":151.21,"manager":"Tanya Butenko","country":"AU","city":"Sydney","state":""},{"name":"Sydney Node.ninjas","urlname":"sydney-node-ninjas","lat":-33.87,"lon":151.21,"manager":"Romain","country":"AU","city":"Sydney","state":""},{"name":"Node Girls Sydney","urlname":"Node-Girls-Sydney","lat":-33.87,"lon":151.21,"manager":"Tanya Butenko","country":"AU","city":"Sydney","state":""}],"NL":[{"name":"NodeSchool Amsterdam","urlname":"nodeschool-amsterdam","lat":52.37,"lon":4.89,"manager":"JP Wesselink","country":"NL","city":"Amsterdam","state":""},{"name":"NodeJS.FRL","urlname":"NodeJS-FRL","lat":53.21,"lon":5.79,"manager":"Arjan Renkema","country":"NL","city":"Leeuwarden","state":""},{"name":"NodeSchool Amsterdam","urlname":"nodeschool-amsterdam","lat":52.37,"lon":4.89,"manager":"JP Wesselink","country":"NL","city":"Amsterdam","state":""}],"PE":[{"name":"Lima NodeJS Meetup","urlname":"Lima-NodeJS-Meetup","lat":-12.07,"lon":-77.05,"manager":"Rein Petersen","country":"PE","city":"Lima","state":""}],"ID":[{"name":"BaliJS – JavaScript, HTML5 and NodeJS Meetup","urlname":"BaliJS","lat":-8.65,"lon":115.22,"manager":"Trimikha Valentius","country":"ID","city":"Denpasar","state":""}]}]