[{"CA":[{"name":"node.sc","urlname":"node-sc","lat":36.99,"lon":-122.06,"manager":"Brian Link","country":"US","city":"Santa Cruz","state":"CA"},{"name":"Node.js Club SF","urlname":"Node-js-Serverside-Javascripters-Club-SF","lat":37.78,"lon":-122.42,"manager":"Matt Pardee","country":"US","city":"San Francisco","state":"CA"},{"name":"BayNode - The Bay Area Node.js Meetup","urlname":"BayNode","lat":37.38,"lon":-122.08,"manager":"Adam Crabtree","country":"US","city":"Mountain View","state":"CA"},{"name":"SoCal Node.js","urlname":"SoCal-Node-JS","lat":33.99,"lon":-118.43,"manager":"David Aktary","country":"US","city":"Los Angeles","state":"CA"},{"name":"Node.js OC","urlname":"Node-JS-OC","lat":33.68,"lon":-117.83,"manager":"Farsheed Atef","country":"US","city":"Irvine","state":"CA"},{"name":"js.la - Los Angeles JavaScript and Node.js","urlname":"Los-Angeles-JavaScript-and-Node-js","lat":34.04,"lon":-118.25,"manager":"David Guttman","country":"US","city":"Los Angeles","state":"CA"},{"name":"SFNode","urlname":"sfnode","lat":37.77,"lon":-122.4,"manager":"Dan Shaw","country":"US","city":"San Francisco","state":"CA"},{"name":"js.la - Los Angeles JavaScript and Node.js","urlname":"Los-Angeles-JavaScript-and-Node-js","lat":34.04,"lon":-118.25,"manager":"David Guttman","country":"US","city":"Los Angeles","state":"CA"},{"name":"SFNode","urlname":"sfnode","lat":37.77,"lon":-122.4,"manager":"Dan Shaw","country":"US","city":"San Francisco","state":"CA"},{"name":"Node.js Club SF","urlname":"Node-js-Serverside-Javascripters-Club-SF","lat":37.78,"lon":-122.42,"manager":"Matt Pardee","country":"US","city":"San Francisco","state":"CA"},{"name":"Node.js OC","urlname":"Node-JS-OC","lat":33.68,"lon":-117.83,"manager":"Farsheed Atef","country":"US","city":"Irvine","state":"CA"},{"name":"BayNode - The Bay Area Node.js Meetup","urlname":"BayNode","lat":37.38,"lon":-122.08,"manager":"Adam Crabtree","country":"US","city":"Mountain View","state":"CA"}],"IN":[{"name":"Node.indy : Indianapolis Node.js Meetup","urlname":"Node-indy","lat":39.87,"lon":-86.11,"manager":"John Hurst","country":"US","city":"Indianapolis","state":"IN"}],"PA":[{"name":"node.pgh","urlname":"Pittsburgh-Node-js","lat":40.4,"lon":-79.97,"manager":"Colin Ihrig","country":"US","city":"Pittsburgh","state":"PA"},{"name":"Node.js Philly","urlname":"nodejs-philly","lat":39.95,"lon":-75.16,"manager":"Alex Urevick-Ackelsberg","country":"US","city":"Philadelphia","state":"PA"},{"name":"Apostrophe: A Node.js CMS Meetup","urlname":"Apostrophe-A-Node-js-CMS-Meetup","lat":39.94,"lon":-75.15,"manager":"Alex Gilbert","country":"US","city":"Philadelphia","state":"PA"},{"name":"node.pgh","urlname":"Pittsburgh-Node-js","lat":40.4,"lon":-79.97,"manager":"Colin Ihrig","country":"US","city":"Pittsburgh","state":"PA"}],"MA":[{"name":"Boston Node","urlname":"Boston-Node","lat":42.35,"lon":-71.04,"manager":"Brian Sodano","country":"US","city":"Boston","state":"MA"}],"NY":[{"name":"MEAN (MongoDB, Express, AngularJS, Node.js) Stack NYC","urlname":"MEAN-Stack-NYC","lat":40.81,"lon":-73.94,"manager":"Jamal","country":"US","city":"New York","state":"NY"}],"NH":[{"name":"Portsmouth Node.js Meetup","urlname":"Portsmouth-Node-js-Meetup","lat":43.07,"lon":-70.78,"manager":"Steven Zeiler","country":"US","city":"Portsmouth","state":"NH"},{"name":"Portsmouth Node.js Meetup","urlname":"Portsmouth-Node-js-Meetup","lat":43.07,"lon":-70.78,"manager":"Steven Zeiler","country":"US","city":"Portsmouth","state":"NH"}],"MD":[{"name":"Baltimore Node Makerspace","urlname":"BaltimoreNode","lat":39.33,"lon":-76.61,"manager":"Baltimore Node","country":"US","city":"Baltimore","state":"MD"}],"TX":[{"name":"Dallas.node","urlname":"DallasNode","lat":32.93,"lon":-96.79,"manager":"Adam Crabtree","country":"US","city":"Dallas","state":"TX"},{"name":"Node.JS User Group - Austin, TX","urlname":"noders","lat":30.29,"lon":-97.74,"manager":"Irl Nathan","country":"US","city":"Austin","state":"TX"},{"name":"Nodeschool Dallas","urlname":"Nodeschool-Dallas","lat":32.96,"lon":-96.83,"manager":"Steven Gangstead","country":"US","city":"Addison","state":"TX"},{"name":"Node.JS User Group - Austin, TX","urlname":"noders","lat":30.29,"lon":-97.74,"manager":"Irl Nathan","country":"US","city":"Austin","state":"TX"},{"name":"LittleBits, Nodebots, JavaScript, Python, IoT, and More!","urlname":"amRobotics","lat":33.08,"lon":-96.8,"manager":"Ron Dagdag","country":"US","city":"Plano","state":"TX"},{"name":"Dallas.node","urlname":"DallasNode","lat":32.93,"lon":-96.79,"manager":"Adam Crabtree","country":"US","city":"Dallas","state":"TX"}],"FL":[{"name":"Jax Node.js UG","urlname":"Jax-Node-js-UG","lat":30.31,"lon":-81.51,"manager":"David Fekke","country":"US","city":"Jacksonville","state":"FL"},{"name":"NodeSchool St. Petersburg","urlname":"NodeSchool-St-Petersburg","lat":27.77,"lon":-82.64,"manager":"Juli√°n Duque","country":"US","city":"Saint Petersburg","state":"FL"}],"UT":[{"name":"Utah Node.js - Salt Lake City","urlname":"utahnodejs","lat":40.62,"lon":-111.82,"manager":"Michael Jackson","country":"US","city":"Salt Lake City","state":"UT"}],"IL":[{"name":"Chicago  Node.js","urlname":"Chicago-Nodejs","lat":41.88,"lon":-87.64,"manager":"Mike Hostetler","country":"US","city":"Chicago","state":"IL"},{"name":"Chicago  Node.js","urlname":"Chicago-Nodejs","lat":41.88,"lon":-87.64,"manager":"Mike Hostetler","country":"US","city":"Chicago","state":"IL"}],"DC":[{"name":"node.dc","urlname":"node-dc","lat":38.92,"lon":-77.04,"manager":"Andrew Dunkman","country":"US","city":"Washington","state":"DC"},{"name":"node.dc","urlname":"node-dc","lat":38.92,"lon":-77.04,"manager":"Andrew Dunkman","country":"US","city":"Washington","state":"DC"}],"MO":[{"name":"node.jSTL","urlname":"node-jSTL","lat":38.63,"lon":-90.21,"manager":"Keith Chester","country":"US","city":"Saint Louis","state":"MO"},{"name":"node.jSTL","urlname":"node-jSTL","lat":38.63,"lon":-90.21,"manager":"Keith Chester","country":"US","city":"Saint Louis","state":"MO"},{"name":"NodeSchool KC","urlname":"nodeschool-kansas-city","lat":39.01,"lon":-94.6,"manager":"Caleb","country":"US","city":"Kansas City","state":"MO"}],"MN":[{"name":"NodeMN","urlname":"NodeMN","lat":45,"lon":-93.25,"manager":"Mike Frey","country":"US","city":"Minneapolis","state":"MN"},{"name":"NodeMN","urlname":"NodeMN","lat":45,"lon":-93.25,"manager":"Mike Frey","country":"US","city":"Minneapolis","state":"MN"}],"ME":[{"name":"Nodeschool Portland Maine","urlname":"nodeschool-portland-me","lat":43.66,"lon":-70.26,"manager":"Carlo DiCelico","country":"US","city":"Portland","state":"ME"},{"name":"Nodeschool Portland Maine","urlname":"nodeschool-portland-me","lat":43.66,"lon":-70.26,"manager":"Carlo DiCelico","country":"US","city":"Portland","state":"ME"}],"GA":[{"name":"Atlanta Nodejs Developers","urlname":"Atlanta-Nodejs-Developers","lat":33.77,"lon":-84.38,"manager":"Ryan Connelly","country":"US","city":"Atlanta","state":"GA"},{"name":"Atlanta Nodejs Developers","urlname":"Atlanta-Nodejs-Developers","lat":33.77,"lon":-84.38,"manager":"Ryan Connelly","country":"US","city":"Atlanta","state":"GA"}],"AZ":[{"name":"NodeAZ","urlname":"NodeAZ","lat":33.37,"lon":-111.93,"manager":"Chris Matthieu","country":"US","city":"Tempe","state":"AZ"},{"name":"NodeAZ","urlname":"NodeAZ","lat":33.37,"lon":-111.93,"manager":"Chris Matthieu","country":"US","city":"Tempe","state":"AZ"}],"NC":[{"name":"Charlotte NodeJS User Group","urlname":"Charlotte-NodeJS-User-Group","lat":35.21,"lon":-80.86,"manager":"Bilal","country":"US","city":"Charlotte","state":"NC"},{"name":"Charlotte NodeJS User Group","urlname":"Charlotte-NodeJS-User-Group","lat":35.21,"lon":-80.86,"manager":"Bilal","country":"US","city":"Charlotte","state":"NC"}],"OR":[{"name":"PDXnode","urlname":"pdxnode","lat":45.53,"lon":-122.68,"manager":"Milan Loveless","country":"US","city":"Portland","state":"OR"}]}]